<?xml version="1.0" encoding="utf-8" ?>
<kml xmlns="http://www.opengis.net/kml/2.2">
<Document><Folder><name>JPPCP</name>
	<Style id="stylegreen">
		<IconStyle>
			<Icon>
				<name>stylegreen</name>
				<href>green.png</href>
			</Icon>
		</IconStyle>
	</Style>
	<Style id="stylered">
		<IconStyle>
			<Icon>
				<name>stylered</name>
				<href>red.png</href>
			</Icon>
		</IconStyle>
	</Style>
  <Placemark>
	<name>Acheberg</name>
	<description></description>
	<styleUrl>#stylegreen</styleUrl>
	<ExtendedData><SchemaData schemaUrl="#JPPCP">
		<SimpleData name="PID">1</SimpleData>
		<SimpleData name="catched">20140302</SimpleData>
	</SchemaData></ExtendedData>
      <MultiGeometry><Point><coordinates>8.044743475521221,47.427301228131689</coordinates></Point></MultiGeometry>
  </Placemark>
  <Placemark>
	<name>Hombergegg</name>
	<styleUrl>#stylegreen</styleUrl>
	<ExtendedData><SchemaData schemaUrl="#JPPCP">
		<SimpleData name="PID">2</SimpleData>
		<SimpleData name="catched">20140302</SimpleData>
	</SchemaData></ExtendedData>
      <MultiGeometry><Point><coordinates>8.06627805361776,47.429381744655124</coordinates></Point></MultiGeometry>
  </Placemark>
  <Placemark>
	<name>Gisliflue</name>
	<styleUrl>#stylegreen</styleUrl>
	<ExtendedData><SchemaData schemaUrl="#JPPCP">
		<SimpleData name="PID">3</SimpleData>
		<SimpleData name="catched">20140309</SimpleData>
	</SchemaData></ExtendedData>
      <MultiGeometry><Point><coordinates>8.109257956104818,47.425697770049354</coordinates></Point></MultiGeometry>
  </Placemark>
  <Placemark>
	<name>Wasserflue</name>
	<styleUrl>#stylered</styleUrl>
	<ExtendedData><SchemaData schemaUrl="#JPPCP">
		<SimpleData name="PID">4</SimpleData>
		<SimpleData name="catched">F</SimpleData>
	</SchemaData></ExtendedData>
      <MultiGeometry><Point><coordinates>8.024648827479373,47.430031049740002</coordinates></Point></MultiGeometry>
  </Placemark>
  <Placemark>
	<name>Gross Wolf</name>
	<styleUrl>#stylegreen</styleUrl>
	<ExtendedData><SchemaData schemaUrl="#JPPCP">
		<SimpleData name="PID">5</SimpleData>
		<SimpleData name="catched">20140302</SimpleData>
	</SchemaData></ExtendedData>
      <MultiGeometry><Point><coordinates>8.043715782564693,47.430523844007759</coordinates></Point></MultiGeometry>
  </Placemark>
  <Placemark>
	<name>Chli Wolf</name>
	<styleUrl>#stylegreen</styleUrl>
	<ExtendedData><SchemaData schemaUrl="#JPPCP">
		<SimpleData name="PID">6</SimpleData>
		<SimpleData name="catched">20140302</SimpleData>
	</SchemaData></ExtendedData>
      <MultiGeometry><Point><coordinates>8.042498167048054,47.434075726893276</coordinates></Point></MultiGeometry>
  </Placemark>
  <Placemark>
	<name>Stellichopf</name>
	<styleUrl>#stylegreen</styleUrl>
	<ExtendedData><SchemaData schemaUrl="#JPPCP">
		<SimpleData name="PID">7</SimpleData>
		<SimpleData name="catched">20140330</SimpleData>
	</SchemaData></ExtendedData>
      <MultiGeometry><Point><coordinates>7.962173304839629,47.431033092433573</coordinates></Point></MultiGeometry>
  </Placemark>
  <Placemark>
	<name>R?bnen</name>
	<styleUrl>#stylered</styleUrl>
	<ExtendedData><SchemaData schemaUrl="#JPPCP">
		<SimpleData name="PID">8</SimpleData>
		<SimpleData name="catched">F</SimpleData>
	</SchemaData></ExtendedData>
      <MultiGeometry><Point><coordinates>7.982881509303486,47.438271778119443</coordinates></Point></MultiGeometry>
  </Placemark>
  <Placemark>
	<name>Burgfluh</name>
	<styleUrl>#stylered</styleUrl>
	<ExtendedData><SchemaData schemaUrl="#JPPCP">
		<SimpleData name="PID">9</SimpleData>
		<SimpleData name="catched">F</SimpleData>
	</SchemaData></ExtendedData>
      <MultiGeometry><Point><coordinates>7.979440337437023,47.446177711839667</coordinates></Point></MultiGeometry>
  </Placemark>
  <Placemark>
	<name>Ruine Heidegg</name>
	<styleUrl>#stylered</styleUrl>
	<ExtendedData><SchemaData schemaUrl="#JPPCP">
		<SimpleData name="PID">10</SimpleData>
		<SimpleData name="catched">F</SimpleData>
	</SchemaData></ExtendedData>
      <MultiGeometry><Point><coordinates>7.974685861702679,47.437643275693752</coordinates></Point></MultiGeometry>
  </Placemark>
  <Placemark>
	<name>Strihe</name>
	<styleUrl>#stylered</styleUrl>
	<ExtendedData><SchemaData schemaUrl="#JPPCP">
		<SimpleData name="PID">11</SimpleData>
		<SimpleData name="catched">F</SimpleData>
	</SchemaData></ExtendedData>
      <MultiGeometry><Point><coordinates>8.036906253345505,47.449372642465292</coordinates></Point></MultiGeometry>
  </Placemark>
  <Placemark>
	<name>Asperstrihe</name>
	<styleUrl>#stylered</styleUrl>
	<ExtendedData><SchemaData schemaUrl="#JPPCP">
		<SimpleData name="PID">12</SimpleData>
		<SimpleData name="catched">F</SimpleData>
	</SchemaData></ExtendedData>
      <MultiGeometry><Point><coordinates>8.035265585734752,47.441302949342031</coordinates></Point></MultiGeometry>
  </Placemark>
  <Placemark>
	<name>Strihe (West)</name>
	<styleUrl>#stylegreen</styleUrl>
	<ExtendedData><SchemaData schemaUrl="#JPPCP">
		<SimpleData name="PID">13</SimpleData>
		<SimpleData name="catched">20140316</SimpleData>
	</SchemaData></ExtendedData>
      <MultiGeometry><Point><coordinates>8.029811894681464,47.45183446837251</coordinates></Point></MultiGeometry>
  </Placemark>
  <Placemark>
	<name>Hard</name>
	<styleUrl>#stylered</styleUrl>
	<ExtendedData><SchemaData schemaUrl="#JPPCP">
		<SimpleData name="PID">14</SimpleData>
		<SimpleData name="catched">F</SimpleData>
	</SchemaData></ExtendedData>
      <MultiGeometry><Point><coordinates>8.080712390960699,47.441489948221367</coordinates></Point></MultiGeometry>
  </Placemark>
  <Placemark>
	<name>Würz</name>
	<styleUrl>#stylered</styleUrl>
	<ExtendedData><SchemaData schemaUrl="#JPPCP">
		<SimpleData name="PID">15</SimpleData>
		<SimpleData name="catched">F</SimpleData>
	</SchemaData></ExtendedData>
      <MultiGeometry><Point><coordinates>8.077672119860123,47.446477974474661</coordinates></Point></MultiGeometry>
  </Placemark>
  <Placemark>
	<name>Ruine Schenkenberg</name>
	<styleUrl>#stylegreen</styleUrl>
	<ExtendedData><SchemaData schemaUrl="#JPPCP">
		<SimpleData name="PID">16</SimpleData>
		<SimpleData name="catched">20140309</SimpleData>
	</SchemaData></ExtendedData>
      <MultiGeometry><Point><coordinates>8.10122171456495,47.441995745121332</coordinates></Point></MultiGeometry>
  </Placemark>
  <Placemark>
	<name>Grund</name>
	<styleUrl>#stylered</styleUrl>
	<ExtendedData><SchemaData schemaUrl="#JPPCP">
		<SimpleData name="PID">17</SimpleData>
		<SimpleData name="catched">F</SimpleData>
	</SchemaData></ExtendedData>
      <MultiGeometry><Point><coordinates>8.114309324602727,47.451719099362997</coordinates></Point></MultiGeometry>
  </Placemark>
  <Placemark>
	<name>Sunneberg</name>
	<styleUrl>#stylered</styleUrl>
	<ExtendedData><SchemaData schemaUrl="#JPPCP">
		<SimpleData name="PID">18</SimpleData>
		<SimpleData name="catched">F</SimpleData>
	</SchemaData></ExtendedData>
      <MultiGeometry><Point><coordinates>8.093597736943998,47.458004335579396</coordinates></Point></MultiGeometry>
  </Placemark>
  <Placemark>
	<name>Dreierberg</name>
	<styleUrl>#stylered</styleUrl>
	<ExtendedData><SchemaData schemaUrl="#JPPCP">
		<SimpleData name="PID">19</SimpleData>
		<SimpleData name="catched">F</SimpleData>
	</SchemaData></ExtendedData>
      <MultiGeometry><Point><coordinates>8.114192787291335,47.458113056011598</coordinates></Point></MultiGeometry>
  </Placemark>
  <Placemark>
	<name>Ibergflue</name>
	<styleUrl>#stylegreen</styleUrl>
	<ExtendedData><SchemaData schemaUrl="#JPPCP">
		<SimpleData name="PID">20</SimpleData>
		<SimpleData name="catched">20140406</SimpleData>
	</SchemaData></ExtendedData>
      <MultiGeometry><Point><coordinates>8.112624214841507,47.463344313100102</coordinates></Point></MultiGeometry>
  </Placemark>
  <Placemark>
	<name>Zeihergutsch</name>
	<styleUrl>#stylegreen</styleUrl>
	<ExtendedData><SchemaData schemaUrl="#JPPCP">
		<SimpleData name="PID">66</SimpleData>
		<SimpleData name="catched">20140406</SimpleData>
	</SchemaData></ExtendedData>
      <MultiGeometry><Point><coordinates>8.118624214841507,47.464344313100102</coordinates></Point></MultiGeometry>
  </Placemark>
  <Placemark>
	<name>Letzi</name>
	<styleUrl>#stylered</styleUrl>
	<ExtendedData><SchemaData schemaUrl="#JPPCP">
		<SimpleData name="PID">21</SimpleData>
		<SimpleData name="catched">F</SimpleData>
	</SchemaData></ExtendedData>
      <MultiGeometry><Point><coordinates>8.127448841566933,47.508666657719807</coordinates></Point></MultiGeometry>
  </Placemark>
  <Placemark>
	<name>Hoomel</name>
	<styleUrl>#stylered</styleUrl>
	<ExtendedData><SchemaData schemaUrl="#JPPCP">
		<SimpleData name="PID">22</SimpleData>
		<SimpleData name="catched">F</SimpleData>
	</SchemaData></ExtendedData>
      <MultiGeometry><Point><coordinates>8.124844117980709,47.514561408028626</coordinates></Point></MultiGeometry>
  </Placemark>
  <Placemark>
	<name>Dimmis</name>
	<styleUrl>#stylered</styleUrl>
	<ExtendedData><SchemaData schemaUrl="#JPPCP">
		<SimpleData name="PID">23</SimpleData>
		<SimpleData name="catched">F</SimpleData>
	</SchemaData></ExtendedData>
      <MultiGeometry><Point><coordinates>8.121973170582493,47.521748226583291</coordinates></Point></MultiGeometry>
  </Placemark>
  <Placemark>
	<name>Chreisacherturm</name>
	<styleUrl>#stylered</styleUrl>
	<ExtendedData><SchemaData schemaUrl="#JPPCP">
		<SimpleData name="PID">24</SimpleData>
		<SimpleData name="catched">F</SimpleData>
	</SchemaData></ExtendedData>
      <MultiGeometry><Point><coordinates>8.115424603935462,47.528382896280668</coordinates></Point></MultiGeometry>
  </Placemark>
  <Placemark>
	<name>Bürerhorn</name>
	<styleUrl>#stylered</styleUrl>
	<ExtendedData><SchemaData schemaUrl="#JPPCP">
		<SimpleData name="PID">25</SimpleData>
		<SimpleData name="catched">F</SimpleData>
	</SchemaData></ExtendedData>
      <MultiGeometry><Point><coordinates>8.151415018987311,47.5335206480962</coordinates></Point></MultiGeometry>
  </Placemark>
  <Placemark>
	<name>Hottwilerhorn</name>
	<styleUrl>#stylered</styleUrl>
	<ExtendedData><SchemaData schemaUrl="#JPPCP">
		<SimpleData name="PID">26</SimpleData>
		<SimpleData name="catched">F</SimpleData>
	</SchemaData></ExtendedData>
      <MultiGeometry><Point><coordinates>8.163511165062467,47.535500992434173</coordinates></Point></MultiGeometry>
  </Placemark>
  <Placemark>
	<name>Geissberg Chameren</name>
	<styleUrl>#stylered</styleUrl>
	<ExtendedData><SchemaData schemaUrl="#JPPCP">
		<SimpleData name="PID">27</SimpleData>
		<SimpleData name="catched">F</SimpleData>
	</SchemaData></ExtendedData>
      <MultiGeometry><Point><coordinates>8.168508673712166,47.529351356778079</coordinates></Point></MultiGeometry>
  </Placemark>
  <Placemark>
	<name>Ruine Besserstein</name>
	<styleUrl>#stylered</styleUrl>
	<ExtendedData><SchemaData schemaUrl="#JPPCP">
		<SimpleData name="PID">28</SimpleData>
		<SimpleData name="catched">F</SimpleData>
	</SchemaData></ExtendedData>
      <MultiGeometry><Point><coordinates>8.211136262224931,47.524534131318951</coordinates></Point></MultiGeometry>
  </Placemark>
  <Placemark>
	<name>Rotbergegg</name>
	<styleUrl>#stylered</styleUrl>
	<ExtendedData><SchemaData schemaUrl="#JPPCP">
		<SimpleData name="PID">29</SimpleData>
		<SimpleData name="catched">F</SimpleData>
	</SchemaData></ExtendedData>
      <MultiGeometry><Point><coordinates>8.199676048104884,47.544716153766615</coordinates></Point></MultiGeometry>
  </Placemark>
  <Placemark>
	<name>Laubberg</name>
	<styleUrl>#stylered</styleUrl>
	<ExtendedData><SchemaData schemaUrl="#JPPCP">
		<SimpleData name="PID">30</SimpleData>
		<SimpleData name="catched">F</SimpleData>
	</SchemaData></ExtendedData>
      <MultiGeometry><Point><coordinates>8.14903082382145,47.545245993071553</coordinates></Point></MultiGeometry>
  </Placemark>
  <Placemark>
	<name>Ruine Wessenberg</name>
	<styleUrl>#stylered</styleUrl>
	<ExtendedData><SchemaData schemaUrl="#JPPCP">
		<SimpleData name="PID">31</SimpleData>
		<SimpleData name="catched">F</SimpleData>
	</SchemaData></ExtendedData>
      <MultiGeometry><Point><coordinates>8.172033407114283,47.551486859504983</coordinates></Point></MultiGeometry>
  </Placemark>
  <Placemark>
	<name>Wisstannenchopf</name>
	<styleUrl>#stylered</styleUrl>
	<ExtendedData><SchemaData schemaUrl="#JPPCP">
		<SimpleData name="PID">32</SimpleData>
		<SimpleData name="catched">F</SimpleData>
	</SchemaData></ExtendedData>
      <MultiGeometry><Point><coordinates>8.159637218800702,47.577731295067125</coordinates></Point></MultiGeometry>
  </Placemark>
  <Placemark>
	<name>Gugli</name>
	<styleUrl>#stylered</styleUrl>
	<ExtendedData><SchemaData schemaUrl="#JPPCP">
		<SimpleData name="PID">33</SimpleData>
		<SimpleData name="catched">F</SimpleData>
	</SchemaData></ExtendedData>
      <MultiGeometry><Point><coordinates>8.112949636352202,47.533559586678749</coordinates></Point></MultiGeometry>
  </Placemark>
  <Placemark>
	<name>Marchwald</name>
	<styleUrl>#stylered</styleUrl>
	<ExtendedData><SchemaData schemaUrl="#JPPCP">
		<SimpleData name="PID">34</SimpleData>
		<SimpleData name="catched">F</SimpleData>
	</SchemaData></ExtendedData>
      <MultiGeometry><Point><coordinates>8.096128287800088,47.519743071559418</coordinates></Point></MultiGeometry>
  </Placemark>
  <Placemark>
	<name>F?rberg</name>
	<styleUrl>#stylered</styleUrl>
	<ExtendedData><SchemaData schemaUrl="#JPPCP">
		<SimpleData name="PID">35</SimpleData>
		<SimpleData name="catched">F</SimpleData>
	</SchemaData></ExtendedData>
      <MultiGeometry><Point><coordinates>7.999653824623529,47.485169612151104</coordinates></Point></MultiGeometry>
  </Placemark>
  <Placemark>
	<name>Tiersteiberg</name>
	<styleUrl>#stylered</styleUrl>
	<ExtendedData><SchemaData schemaUrl="#JPPCP">
		<SimpleData name="PID">36</SimpleData>
		<SimpleData name="catched">F</SimpleData>
	</SchemaData></ExtendedData>
      <MultiGeometry><Point><coordinates>7.959243272551298,47.498455242197636</coordinates></Point></MultiGeometry>
  </Placemark>
  <Placemark>
	<name>Zeinigerberg</name>
	<styleUrl>#stylered</styleUrl>
	<ExtendedData><SchemaData schemaUrl="#JPPCP">
		<SimpleData name="PID">37</SimpleData>
		<SimpleData name="catched">F</SimpleData>
	</SchemaData></ExtendedData>
      <MultiGeometry><Point><coordinates>7.891235031050978,47.540676187875412</coordinates></Point></MultiGeometry>
  </Placemark>
  <Placemark>
	<name>Refugium Horn</name>
	<styleUrl>#stylered</styleUrl>
	<ExtendedData><SchemaData schemaUrl="#JPPCP">
		<SimpleData name="PID">38</SimpleData>
		<SimpleData name="catched">F</SimpleData>
	</SchemaData></ExtendedData>
      <MultiGeometry><Point><coordinates>7.958996750743005,47.482671868105903</coordinates></Point></MultiGeometry>
  </Placemark>
  <Placemark>
	<name>Reichberg</name>
	<styleUrl>#stylered</styleUrl>
	<ExtendedData><SchemaData schemaUrl="#JPPCP">
		<SimpleData name="PID">39</SimpleData>
		<SimpleData name="catched">F</SimpleData>
	</SchemaData></ExtendedData>
      <MultiGeometry><Point><coordinates>7.965667604147379,47.465558109728022</coordinates></Point></MultiGeometry>
  </Placemark>
  <Placemark>
	<name>Geissflue</name>
	<styleUrl>#stylegreen</styleUrl>
	<ExtendedData><SchemaData schemaUrl="#JPPCP">
		<SimpleData name="PID">40</SimpleData>
		<SimpleData name="catched">20140330</SimpleData>
	</SchemaData></ExtendedData>
      <MultiGeometry><Point><coordinates>7.963704295385118,47.422483605726008</coordinates></Point></MultiGeometry>
  </Placemark>
  <Placemark>
	<name>Herzberg</name>
	<styleUrl>#stylered</styleUrl>
	<ExtendedData><SchemaData schemaUrl="#JPPCP">
		<SimpleData name="PID">41</SimpleData>
		<SimpleData name="catched">F</SimpleData>
	</SchemaData></ExtendedData>
      <MultiGeometry><Point><coordinates>8.050556887905225,47.437989524444802</coordinates></Point></MultiGeometry>
  </Placemark>
  <Placemark>
	<name>Chrinneflue</name>
	<styleUrl>#stylered</styleUrl>
	<ExtendedData><SchemaData schemaUrl="#JPPCP">
		<SimpleData name="PID">42</SimpleData>
		<SimpleData name="catched">F</SimpleData>
	</SchemaData></ExtendedData>
      <MultiGeometry><Point><coordinates>8.063440909299141,47.440056178603612</coordinates></Point></MultiGeometry>
  </Placemark>
  <Placemark>
	<name>Mittlisberg</name>
	<styleUrl>#stylered</styleUrl>
	<ExtendedData><SchemaData schemaUrl="#JPPCP">
		<SimpleData name="PID">43</SimpleData>
		<SimpleData name="catched">F</SimpleData>
	</SchemaData></ExtendedData>
      <MultiGeometry><Point><coordinates>8.043098808311731,47.438516829453754</coordinates></Point></MultiGeometry>
  </Placemark>
  <Placemark>
	<name>Hinterlinde</name>
	<styleUrl>#stylered</styleUrl>
	<ExtendedData><SchemaData schemaUrl="#JPPCP">
		<SimpleData name="PID">44</SimpleData>
		<SimpleData name="catched">F</SimpleData>
	</SchemaData></ExtendedData>
      <MultiGeometry><Point><coordinates>8.076258539170007,47.451517931725547</coordinates></Point></MultiGeometry>
  </Placemark>
  <Placemark>
	<name>Einolte</name>
	<styleUrl>#stylered</styleUrl>
	<ExtendedData><SchemaData schemaUrl="#JPPCP">
		<SimpleData name="PID">45</SimpleData>
		<SimpleData name="catched">F</SimpleData>
	</SchemaData></ExtendedData>
      <MultiGeometry><Point><coordinates>8.001528620627097,47.436346923942949</coordinates></Point></MultiGeometry>
  </Placemark>
  <Placemark>
	<name>Ruine Urgiz</name>
	<styleUrl>#stylegreen</styleUrl>
	<ExtendedData><SchemaData schemaUrl="#JPPCP">
		<SimpleData name="PID">46</SimpleData>
		<SimpleData name="catched">20140316</SimpleData>
	</SchemaData></ExtendedData>
      <MultiGeometry><Point><coordinates>8.052352655325455,47.461165282488565</coordinates></Point></MultiGeometry>
  </Placemark>
  <Placemark>
	<name>Widräk</name>
	<styleUrl>#stylegreen</styleUrl>
	<ExtendedData><SchemaData schemaUrl="#JPPCP">
		<SimpleData name="PID">47</SimpleData>
		<SimpleData name="catched">20140406</SimpleData>
	</SchemaData></ExtendedData>
      <MultiGeometry><Point><coordinates>8.102022907925523,47.483466406111624</coordinates></Point></MultiGeometry>
  </Placemark>
  <Placemark>
	<name>Barnig</name>
	<styleUrl>#stylegreen</styleUrl>
	<ExtendedData><SchemaData schemaUrl="#JPPCP">
		<SimpleData name="PID">48</SimpleData>
		<SimpleData name="catched">20140406</SimpleData>
	</SchemaData></ExtendedData>
      <MultiGeometry><Point><coordinates>8.113303767140991,47.485841782851509</coordinates></Point></MultiGeometry>
  </Placemark>
  <Placemark>
	<name>Chronberg</name>
	<styleUrl>#stylered</styleUrl>
	<ExtendedData><SchemaData schemaUrl="#JPPCP">
		<SimpleData name="PID">49</SimpleData>
		<SimpleData name="catched">F</SimpleData>
	</SchemaData></ExtendedData>
      <MultiGeometry><Point><coordinates>8.022041177978931,47.478283666332331</coordinates></Point></MultiGeometry>
  </Placemark>
  <Placemark>
	<name>Chornberghöhi</name>
	<styleUrl>#stylered</styleUrl>
	<ExtendedData><SchemaData schemaUrl="#JPPCP">
		<SimpleData name="PID">50</SimpleData>
		<SimpleData name="catched">F</SimpleData>
	</SchemaData></ExtendedData>
      <MultiGeometry><Point><coordinates>8.017298348461795,47.489045739005782</coordinates></Point></MultiGeometry>
  </Placemark>
  <Placemark>
	<name>Eichbüel</name>
	<styleUrl>#stylered</styleUrl>
	<ExtendedData><SchemaData schemaUrl="#JPPCP">
		<SimpleData name="PID">51</SimpleData>
		<SimpleData name="catched">F</SimpleData>
	</SchemaData></ExtendedData>
      <MultiGeometry><Point><coordinates>7.969479365365749,47.523014459941578</coordinates></Point></MultiGeometry>
  </Placemark>
  <Placemark>
	<name>Looberg</name>
	<styleUrl>#stylered</styleUrl>
	<ExtendedData><SchemaData schemaUrl="#JPPCP">
		<SimpleData name="PID">52</SimpleData>
		<SimpleData name="catched">F</SimpleData>
	</SchemaData></ExtendedData>
      <MultiGeometry><Point><coordinates>7.915770534812146,47.530142194767961</coordinates></Point></MultiGeometry>
  </Placemark>
  <Placemark>
	<name>Chriesiberg</name>
	<styleUrl>#stylered</styleUrl>
	<ExtendedData><SchemaData schemaUrl="#JPPCP">
		<SimpleData name="PID">53</SimpleData>
		<SimpleData name="catched">F</SimpleData>
	</SchemaData></ExtendedData>
      <MultiGeometry><Point><coordinates>7.902353140371256,47.541056619908886</coordinates></Point></MultiGeometry>
  </Placemark>
  <Placemark>
	<name>Garwiden</name>
	<styleUrl>#stylered</styleUrl>
	<ExtendedData><SchemaData schemaUrl="#JPPCP">
		<SimpleData name="PID">54</SimpleData>
		<SimpleData name="catched">F</SimpleData>
	</SchemaData></ExtendedData>
      <MultiGeometry><Point><coordinates>7.904538817556724,47.533421456135756</coordinates></Point></MultiGeometry>
  </Placemark>
  <Placemark>
	<name>Rohrchopf</name>
	<styleUrl>#stylered</styleUrl>
	<ExtendedData><SchemaData schemaUrl="#JPPCP">
		<SimpleData name="PID">55</SimpleData>
		<SimpleData name="catched">F</SimpleData>
	</SchemaData></ExtendedData>
      <MultiGeometry><Point><coordinates>7.893474659794585,47.514307756423676</coordinates></Point></MultiGeometry>
  </Placemark>
  <Placemark>
	<name>Chlei Sunneberg</name>
	<styleUrl>#stylered</styleUrl>
	<ExtendedData><SchemaData schemaUrl="#JPPCP">
		<SimpleData name="PID">56</SimpleData>
		<SimpleData name="catched">F</SimpleData>
	</SchemaData></ExtendedData>
      <MultiGeometry><Point><coordinates>7.857157353515807,47.534090150017683</coordinates></Point></MultiGeometry>
  </Placemark>
  <Placemark>
	<name>Schönenberg</name>
	<styleUrl>#stylered</styleUrl>
	<ExtendedData><SchemaData schemaUrl="#JPPCP">
		<SimpleData name="PID">57</SimpleData>
		<SimpleData name="catched">F</SimpleData>
	</SchemaData></ExtendedData>
      <MultiGeometry><Point><coordinates>7.862604066130322,47.527969254676812</coordinates></Point></MultiGeometry>
  </Placemark>
  <Placemark>
	<name>Weegestetter Flue</name>
	<styleUrl>#stylered</styleUrl>
	<ExtendedData><SchemaData schemaUrl="#JPPCP">
		<SimpleData name="PID">60</SimpleData>
		<SimpleData name="catched">F</SimpleData>
	</SchemaData></ExtendedData>
      <MultiGeometry><Point><coordinates>7.937608300164342,47.486121637857359</coordinates></Point></MultiGeometry>
  </Placemark>
  <Placemark>
	<name>Fazedelle</name>
	<styleUrl>#stylered</styleUrl>
	<ExtendedData><SchemaData schemaUrl="#JPPCP">
		<SimpleData name="PID">61</SimpleData>
		<SimpleData name="catched">F</SimpleData>
	</SchemaData></ExtendedData>
      <MultiGeometry><Point><coordinates>7.948663062908166,47.489871527371854</coordinates></Point></MultiGeometry>
  </Placemark>
  <Placemark>
	<name>Ruine Alt Homberg</name>
	<styleUrl>#stylered</styleUrl>
	<ExtendedData><SchemaData schemaUrl="#JPPCP">
		<SimpleData name="PID">62</SimpleData>
		<SimpleData name="catched">F</SimpleData>
	</SchemaData></ExtendedData>
      <MultiGeometry><Point><coordinates>7.973121609463542,47.491171353178565</coordinates></Point></MultiGeometry>
  </Placemark>
  <Placemark>
	<name>Schnäpfelflue</name>
	<styleUrl>#stylered</styleUrl>
	<ExtendedData><SchemaData schemaUrl="#JPPCP">
		<SimpleData name="PID">63</SimpleData>
		<SimpleData name="catched">F</SimpleData>
	</SchemaData></ExtendedData>
      <MultiGeometry><Point><coordinates>7.949952944593262,47.431752513818381</coordinates></Point></MultiGeometry>
  </Placemark>
  <Placemark>
	<name>Ruine Alt Kienberg</name>
	<styleUrl>#stylegreen</styleUrl>
	<ExtendedData><SchemaData schemaUrl="#JPPCP">
		<SimpleData name="PID">64</SimpleData>
		<SimpleData name="catched">20140330</SimpleData>
	</SchemaData></ExtendedData>
      <MultiGeometry><Point><coordinates>7.949133610184027,47.438400753120121</coordinates></Point></MultiGeometry>
  </Placemark>
  <Placemark>
	<name>Uf dr Weid</name>
	<styleUrl>#stylered</styleUrl>
	<ExtendedData><SchemaData schemaUrl="#JPPCP">
		<SimpleData name="PID">65</SimpleData>
		<SimpleData name="catched">F</SimpleData>
	</SchemaData></ExtendedData>
      <MultiGeometry><Point><coordinates>8.011957491945976,47.44327815831663</coordinates></Point></MultiGeometry>
  </Placemark>
</Folder>
<Schema name="JPPCP" id="JPPCP">
	<SimpleField name="BikeOrFoot" type="string"></SimpleField>
	<SimpleField name="PID" type="int"></SimpleField>
	<SimpleField name="catched" type="string"></SimpleField>
	<SimpleField name="CatchDate" type="string"></SimpleField>
</Schema>
</Document></kml>
